{
  "type": "FeatureCollection",
  "generator": "overpass-ide",
  "copyright": "The data included in this document is from www.openstreetmap.org. The data is made available under ODbL.",
  "timestamp": "2018-12-10T07:51:02Z",
  "features": [
    {
      "type": "Feature",
      "properties": {
        "@id": "node/647991",
        "bus": "yes",
        "highway": "bus_stop",
        "name": "Rettichgasse",
        "network": "VOR",
        "public_transport": "stop_position",
        "railway": "tram_stop",
        "tram": "yes",
        "wheelchair": "yes"
      },
      "geometry": {
        "type": "Point",
        "coordinates": [
          16.2623007,
          48.201554
        ]
      },
      "id": "node/647991"
    },
    {
      "type": "Feature",
      "properties": {
        "@id": "node/703174",
        "bus": "yes",
        "name": "Michelská",
        "public_transport": "stop_position",
        "railway": "tram_stop",
        "source": "Bing",
        "tram": "yes"
      },
      "geometry": {
        "type": "Point",
        "coordinates": [
          14.4538498,
          50.0550411
        ]
      },
      "id": "node/703174"
    },
    {
      "type": "Feature",
      "properties": {
        "@id": "node/724262",
        "name": "Vozovna Pankrác",
        "name:de": "Wagenhalle Pankratz",
        "public_transport": "stop_position",
        "railway": "tram_stop",
        "tram": "yes"
      },
      "geometry": {
        "type": "Point",
        "coordinates": [
          14.4378354,
          50.0570803
        ]
      },
      "id": "node/724262"
    },
    {
      "type": "Feature",
      "properties": {
        "@id": "node/21257811",
        "name": "Čechův most",
        "public_transport": "stop_position",
        "railway": "tram_stop",
        "tram": "yes"
      },
      "geometry": {
        "type": "Point",
        "coordinates": [
          14.4177847,
          50.0941209
        ]
      },
      "id": "node/21257811"
    },
    {
      "type": "Feature",
      "properties": {
        "@id": "node/21262898",
        "name": "Palmovka",
        "name:de": "Palmhof",
        "public_transport": "stop_position",
        "railway": "tram_stop",
        "ref": "U529Z3",
        "source": "cz:IPRPraha:ortofoto",
        "tram": "yes"
      },
      "geometry": {
        "type": "Point",
        "coordinates": [
          14.4718368,
          50.1035143
        ]
      },
      "id": "node/21262898"
    },
    {
      "type": "Feature",
      "properties": {
        "@id": "node/21262916",
        "name": "Nádraží Holešovice",
        "name:de": "Bahnhof Holleschowitz",
        "public_transport": "stop_position",
        "railway": "tram_stop",
        "shelter": "no",
        "tram": "yes"
      },
      "geometry": {
        "type": "Point",
        "coordinates": [
          14.4408721,
          50.1081072
        ]
      },
      "id": "node/21262916"
    },
    {
      "type": "Feature",
      "properties": {
        "@id": "node/21710649",
        "bus": "yes",
        "highway": "bus_stop",
        "name": "Trojská",
        "name:de": "Trojastraße",
        "public_transport": "stop_position",
        "railway": "tram_stop",
        "ref": "U765Z1",
        "tram": "yes"
      },
      "geometry": {
        "type": "Point",
        "coordinates": [
          14.4331702,
          50.1163759
        ]
      },
      "id": "node/21710649"
    },
    {
      "type": "Feature",
      "properties": {
        "@id": "node/21711416",
        "name": "Hellichova",
        "public_transport": "stop_position",
        "railway": "tram_stop",
        "tram": "yes"
      },
      "geometry": {
        "type": "Point",
        "coordinates": [
          14.4042192,
          50.0856431
        ]
      },
      "id": "node/21711416"
    },
    {
      "type": "Feature",
      "properties": {
        "@id": "node/24595601",
        "level": "0",
        "name": "Smíchovské nádraží",
        "name:de": "Bahnhof Smichow",
        "public_transport": "stop_position",
        "railway": "tram_stop",
        "source": "Bing",
        "tram": "yes"
      },
      "geometry": {
        "type": "Point",
        "coordinates": [
          14.4092545,
          50.0613546
        ]
      },
      "id": "node/24595601"
    },
    {
      "type": "Feature",
      "properties": {
        "@id": "node/24958973",
        "name": "Nad Trojou",
        "public_transport": "stop_position",
        "railway": "tram_stop",
        "ref": "U447Z1",
        "tram": "yes"
      },
      "geometry": {
        "type": "Point",
        "coordinates": [
          14.4388877,
          50.120313
        ]
      },
      "id": "node/24958973"
    },
    {
      "type": "Feature",
      "properties": {
        "@id": "node/24959003",
        "name": "Vltavská",
        "public_transport": "stop_position",
        "railway": "tram_stop",
        "ref": "U100Z2",
        "source": "Bing;cuzk",
        "tram": "yes"
      },
      "geometry": {
        "type": "Point",
        "coordinates": [
          14.4387485,
          50.0988536
        ]
      },
      "id": "node/24959003"
    },
    {
      "type": "Feature",
      "properties": {
        "@id": "node/25250203",
        "name": "Edmund-Aigner-Straße",
        "public_transport": "stop_position",
        "railway": "tram_stop",
        "tram": "yes"
      },
      "geometry": {
        "type": "Point",
        "coordinates": [
          14.3309465,
          48.2405777
        ]
      },
      "id": "node/25250203"
    },
    {
      "type": "Feature",
      "properties": {
        "@id": "node/25250269",
        "name": "Saporoshjestraße",
        "public_transport": "stop_position",
        "railway": "tram_stop",
        "tram": "yes"
      },
      "geometry": {
        "type": "Point",
        "coordinates": [
          14.3226727,
          48.252025
        ]
      },
      "id": "node/25250269"
    },
    {
      "type": "Feature",
      "properties": {
        "@id": "node/25250273",
        "name": "Simonystraße",
        "public_transport": "stop_position",
        "railway": "tram_stop",
        "tram": "yes"
      },
      "geometry": {
        "type": "Point",
        "coordinates": [
          14.322333,
          48.2561122
        ]
      },
      "id": "node/25250273"
    },
    {
      "type": "Feature",
      "properties": {
        "@id": "node/25250275",
        "name": "Neue Welt",
        "public_transport": "stop_position",
        "railway": "tram_stop",
        "tram": "yes",
        "wheelchair": "yes"
      },
      "geometry": {
        "type": "Point",
        "coordinates": [
          14.3144345,
          48.273352
        ]
      },
      "id": "node/25250275"
    },
    {
      "type": "Feature",
      "properties": {
        "@id": "node/25250279",
        "name": "Turmstraße",
        "public_transport": "stop_position",
        "railway": "tram_stop",
        "tram": "yes"
      },
      "geometry": {
        "type": "Point",
        "coordinates": [
          14.312644,
          48.2761534
        ]
      },
      "id": "node/25250279"
    },
    {
      "type": "Feature",
      "properties": {
        "@id": "node/25250283",
        "layer": "1",
        "name": "Rudolfstraße",
        "public_transport": "stop_position",
        "railway": "tram_stop",
        "tram": "yes",
        "wheelchair": "limited"
      },
      "geometry": {
        "type": "Point",
        "coordinates": [
          14.2829123,
          48.3109998
        ]
      },
      "id": "node/25250283"
    },
    {
      "type": "Feature",
      "properties": {
        "@id": "node/25250286",
        "name": "Wildbergstraße",
        "public_transport": "stop_position",
        "railway": "tram_stop",
        "tram": "yes",
        "wheelchair": "yes"
      },
      "geometry": {
        "type": "Point",
        "coordinates": [
          14.2872548,
          48.31318
        ]
      },
      "id": "node/25250286"
    },
    {
      "type": "Feature",
      "properties": {
        "@id": "node/25250515",
        "name": "WIFI/Linz AG",
        "public_transport": "stop_position",
        "railway": "tram_stop",
        "tram": "yes",
        "wheelchair": "yes"
      },
      "geometry": {
        "type": "Point",
        "coordinates": [
          14.3088288,
          48.2808248
        ]
      },
      "id": "node/25250515"
    },
    {
      "type": "Feature",
      "properties": {
        "@id": "node/25250519",
        "name": "Bulgariplatz",
        "public_transport": "stop_position",
        "railway": "tram_stop",
        "tram": "yes"
      },
      "geometry": {
        "type": "Point",
        "coordinates": [
          14.3027114,
          48.2849175
        ]
      },
      "id": "node/25250519"
    },
    {
      "type": "Feature",
      "properties": {
        "@id": "node/25681629",
        "name": "Nádraží Holešovice",
        "name:de": "Bahnhof Holleschowitz",
        "public_transport": "stop_position",
        "railway": "tram_stop",
        "tram": "yes"
      },
      "geometry": {
        "type": "Point",
        "coordinates": [
          14.4375463,
          50.1096386
        ]
      },
      "id": "node/25681629"
    },
    {
      "type": "Feature",
      "properties": {
        "@id": "node/25685001",
        "name": "Letenské náměstí",
        "name:de": "Sommerbergplatz",
        "public_transport": "stop_position",
        "railway": "tram_stop",
        "ref": "U324Z2",
        "source": "Bing;cuzk",
        "tram": "yes"
      },
      "geometry": {
        "type": "Point",
        "coordinates": [
          14.4231325,
          50.0999788
        ]
      },
      "id": "node/25685001"
    },
    {
      "type": "Feature",
      "properties": {
        "@id": "node/25936016",
        "level": "0",
        "name": "I. P. Pavlova",
        "name:en": "22 и 23",
        "public_transport": "stop_position",
        "railway": "tram_stop",
        "source": "Bing",
        "tram": "yes"
      },
      "geometry": {
        "type": "Point",
        "coordinates": [
          14.4306269,
          50.0755123
        ]
      },
      "id": "node/25936016"
    },
    {
      "type": "Feature",
      "properties": {
        "@id": "node/25985368",
        "name": "Vozovna Kobylisy",
        "public_transport": "stop_position",
        "railway": "tram_stop",
        "ref": "U864Z1",
        "tram": "yes"
      },
      "geometry": {
        "type": "Point",
        "coordinates": [
          14.453671,
          50.1327907
        ]
      },
      "id": "node/25985368"
    },
    {
      "type": "Feature",
      "properties": {
        "@id": "node/25985396",
        "name": "Vozovna Kobylisy",
        "note": "výstupní zastávka",
        "public_transport": "stop_position",
        "railway": "tram_stop",
        "ref": "U864Z52",
        "tram": "yes"
      },
      "geometry": {
        "type": "Point",
        "coordinates": [
          14.4538295,
          50.1327042
        ]
      },
      "id": "node/25985396"
    },
    {
      "type": "Feature",
      "properties": {
        "@id": "node/26065846",
        "name": "Bílá Hora",
        "name:de": "Weißer Berg",
        "public_transport": "stop_position",
        "railway": "tram_stop",
        "tram": "yes"
      },
      "geometry": {
        "type": "Point",
        "coordinates": [
          14.3233766,
          50.0758319
        ]
      },
      "id": "node/26065846"
    },
    {
      "type": "Feature",
      "properties": {
        "@id": "node/26111226",
        "name": "Autobusové nádraží, podchod",
        "public_transport": "stop_position",
        "railway": "tram_stop",
        "tram": "yes"
      },
      "geometry": {
        "type": "Point",
        "coordinates": [
          17.2838837,
          49.5886878
        ]
      },
      "id": "node/26111226"
    },
    {
      "type": "Feature",
      "properties": {
        "@id": "node/26111243",
        "name": "Hlavní nádraží, A",
        "public_transport": "stop_position",
        "railway": "tram_stop",
        "tram": "yes"
      },
      "geometry": {
        "type": "Point",
        "coordinates": [
          17.2776113,
          49.5922886
        ]
      },
      "id": "node/26111243"
    },
    {
      "type": "Feature",
      "properties": {
        "@id": "node/26111258",
        "name": "Kosmonautů, K (občasná)",
        "public_transport": "stop_position",
        "railway": "tram_stop",
        "tram": "yes"
      },
      "geometry": {
        "type": "Point",
        "coordinates": [
          17.2754988,
          49.5918687
        ]
      },
      "id": "node/26111258"
    },
    {
      "type": "Feature",
      "properties": {
        "@id": "node/26111263",
        "name": "Vejdovského",
        "public_transport": "stop_position",
        "railway": "tram_stop",
        "tram": "yes"
      },
      "geometry": {
        "type": "Point",
        "coordinates": [
          17.2702756,
          49.5906052
        ]
      },
      "id": "node/26111263"
    },
    {
      "type": "Feature",
      "properties": {
        "@id": "node/26111270",
        "name": "Envelopa",
        "public_transport": "stop_position",
        "railway": "tram_stop",
        "tram": "yes"
      },
      "geometry": {
        "type": "Point",
        "coordinates": [
          17.262065,
          49.5895927
        ]
      },
      "id": "node/26111270"
    },
    {
      "type": "Feature",
      "properties": {
        "@id": "node/26610821",
        "name": "ŽST Vinohrady",
        "operator": "DPB",
        "public_transport": "stop_position",
        "railway": "tram_stop",
        "tram": "yes"
      },
      "geometry": {
        "type": "Point",
        "coordinates": [
          17.1331615,
          48.1857811
        ]
      },
      "id": "node/26610821"
    },
    {
      "type": "Feature",
      "properties": {
        "@id": "node/27025636",
        "name": "Spořilov",
        "name:de": "Rosenbühl",
        "public_transport": "stop_position",
        "railway": "tram_stop",
        "source": "Bing",
        "tram": "yes"
      },
      "geometry": {
        "type": "Point",
        "coordinates": [
          14.4821941,
          50.0509204
        ]
      },
      "id": "node/27025636"
    },
    {
      "type": "Feature",
      "properties": {
        "@id": "node/27232300",
        "name": "Odborárska",
        "operator": "DPB",
        "public_transport": "stop_position",
        "railway": "tram_stop",
        "tram": "yes"
      },
      "geometry": {
        "type": "Point",
        "coordinates": [
          17.1462562,
          48.1767018
        ]
      },
      "id": "node/27232300"
    },
    {
      "type": "Feature",
      "properties": {
        "@id": "node/27232438",
        "name": "Zlaté piesky",
        "operator": "DPB",
        "public_transport": "stop_position",
        "railway": "tram_stop",
        "tram": "yes"
      },
      "geometry": {
        "type": "Point",
        "coordinates": [
          17.1832841,
          48.1894747
        ]
      },
      "id": "node/27232438"
    },
    {
      "type": "Feature",
      "properties": {
        "@id": "node/27232628",
        "name": "Hlavná stanica",
        "name:de": "Hauptbahnhof",
        "name:en": "Main station",
        "name:ru": "Главна станица",
        "operator": "DPB",
        "public_transport": "stop_position",
        "railway": "tram_stop",
        "tram": "yes",
        "wheelchair": "no"
      },
      "geometry": {
        "type": "Point",
        "coordinates": [
          17.1069616,
          48.1580612
        ]
      },
      "id": "node/27232628"
    },
    {
      "type": "Feature",
      "properties": {
        "@id": "node/27364264",
        "name": "Slovanet",
        "operator": "DPB",
        "public_transport": "stop_position",
        "railway": "tram_stop",
        "tram": "yes"
      },
      "geometry": {
        "type": "Point",
        "coordinates": [
          17.1423346,
          48.1559227
        ]
      },
      "id": "node/27364264"
    },
    {
      "type": "Feature",
      "properties": {
        "@id": "node/27440744",
        "name": "Saleziáni",
        "operator": "DPB",
        "public_transport": "stop_position",
        "railway": "tram_stop",
        "tram": "yes"
      },
      "geometry": {
        "type": "Point",
        "coordinates": [
          17.133958,
          48.1551391
        ]
      },
      "id": "node/27440744"
    },
    {
      "type": "Feature",
      "properties": {
        "@id": "node/28838424",
        "alt_name": "Slovenská Technická Univerzita",
        "name": "STU",
        "operator": "DPB",
        "public_transport": "stop_position",
        "railway": "tram_stop",
        "tram": "yes"
      },
      "geometry": {
        "type": "Point",
        "coordinates": [
          17.1157568,
          48.1523201
        ]
      },
      "id": "node/28838424"
    },
    {
      "type": "Feature",
      "properties": {
        "@id": "node/28838428",
        "fare_zone": "100",
        "name": "Vazovova",
        "note": "occasional stop",
        "operator": "DPB",
        "public_transport": "stop_position",
        "railway": "tram_stop",
        "tram": "yes"
      },
      "geometry": {
        "type": "Point",
        "coordinates": [
          17.1198859,
          48.1544169
        ]
      },
      "id": "node/28838428"
    },
    {
      "type": "Feature",
      "properties": {
        "@id": "node/29581461",
        "name": "Tusarova",
        "public_transport": "stop_position",
        "railway": "tram_stop",
        "ref": "U81Z3",
        "source": "cz:IPRPraha:ortofoto",
        "tram": "yes"
      },
      "geometry": {
        "type": "Point",
        "coordinates": [
          14.4500341,
          50.1009391
        ]
      },
      "id": "node/29581461"
    },
    {
      "type": "Feature",
      "properties": {
        "@id": "node/29791831",
        "name": "Beuthenfall",
        "railway": "tram_stop",
        "wheelchair": "no"
      },
      "geometry": {
        "type": "Point",
        "coordinates": [
          14.2378612,
          50.9265153
        ]
      },
      "id": "node/29791831"
    },
    {
      "type": "Feature",
      "properties": {
        "@id": "node/30079570",
        "name": "Sídliště Modřany",
        "public_transport": "stop_position",
        "railway": "tram_stop",
        "source": "Bing",
        "tram": "yes"
      },
      "geometry": {
        "type": "Point",
        "coordinates": [
          14.4326375,
          50.0051896
        ]
      },
      "id": "node/30079570"
    },
    {
      "type": "Feature",
      "properties": {
        "@id": "node/30079573",
        "name": "Modřanská rokle",
        "public_transport": "stop_position",
        "railway": "tram_stop",
        "source": "Bing",
        "tram": "yes"
      },
      "geometry": {
        "type": "Point",
        "coordinates": [
          14.4290754,
          50.0063782
        ]
      },
      "id": "node/30079573"
    },
    {
      "type": "Feature",
      "properties": {
        "@id": "node/30079580",
        "name": "U Libušského potoka",
        "public_transport": "stop_position",
        "railway": "tram_stop",
        "source": "Bing",
        "tram": "yes"
      },
      "geometry": {
        "type": "Point",
        "coordinates": [
          14.4231251,
          50.0055624
        ]
      },
      "id": "node/30079580"
    },
    {
      "type": "Feature",
      "properties": {
        "@id": "node/30079586",
        "name": "Poliklinika Modřany",
        "public_transport": "stop_position",
        "railway": "tram_stop",
        "source": "Bing",
        "tram": "yes"
      },
      "geometry": {
        "type": "Point",
        "coordinates": [
          14.4188104,
          50.0045885
        ]
      },
      "id": "node/30079586"
    },
    {
      "type": "Feature",
      "properties": {
        "@id": "node/30079593",
        "name": "Čechova čtvrť",
        "public_transport": "stop_position",
        "railway": "tram_stop",
        "source": "Bing",
        "tram": "yes"
      },
      "geometry": {
        "type": "Point",
        "coordinates": [
          14.4097442,
          50.0022199
        ]
      },
      "id": "node/30079593"
    },
    {
      "type": "Feature",
      "properties": {
        "@id": "node/30079600",
        "name": "Nádraží Modřany",
        "name:de": "Bahnhof Moderschan",
        "public_transport": "stop_position",
        "railway": "tram_stop",
        "source": "Bing",
        "tram": "yes"
      },
      "geometry": {
        "type": "Point",
        "coordinates": [
          14.4032875,
          50.0045333
        ]
      },
      "id": "node/30079600"
    },
    {
      "type": "Feature",
      "properties": {
        "@id": "node/30079641",
        "name": "Modřanská škola",
        "public_transport": "stop_position",
        "railway": "tram_stop",
        "source": "Bing",
        "tram": "yes"
      },
      "geometry": {
        "type": "Point",
        "coordinates": [
          14.4030491,
          50.0090781
        ]
      },
      "id": "node/30079641"
    },
    {
      "type": "Feature",
      "properties": {
        "@id": "node/30079843",
        "name": "Belárie",
        "public_transport": "stop_position",
        "railway": "tram_stop",
        "source": "Bing",
        "tram": "yes"
      },
      "geometry": {
        "type": "Point",
        "coordinates": [
          14.4018578,
          50.0135277
        ]
      },
      "id": "node/30079843"
    },
    {
      "type": "Feature",
      "properties": {
        "@id": "node/30112669",
        "name": "Nasser Grund",
        "railway": "tram_stop"
      },
      "geometry": {
        "type": "Point",
        "coordinates": [
          14.2228821,
          50.9270052
        ]
      },
      "id": "node/30112669"
    },
    {
      "type": "Feature",
      "properties": {
        "@id": "node/31030362",
        "name": "Černý kůň",
        "public_transport": "stop_position",
        "railway": "tram_stop",
        "source": "Bing",
        "tram": "yes"
      },
      "geometry": {
        "type": "Point",
        "coordinates": [
          14.4037035,
          50.0230638
        ]
      },
      "id": "node/31030362"
    },
    {
      "type": "Feature",
      "properties": {
        "@id": "node/31030377",
        "name": "Pobřežní cesta",
        "public_transport": "stop_position",
        "railway": "tram_stop",
        "source": "Bing",
        "tram": "yes"
      },
      "geometry": {
        "type": "Point",
        "coordinates": [
          14.4074826,
          50.0341349
        ]
      },
      "id": "node/31030377"
    },
    {
      "type": "Feature",
      "properties": {
        "@id": "node/31624631",
        "name": "Krejcárek",
        "public_transport": "stop_position",
        "railway": "tram_stop",
        "tram": "yes"
      },
      "geometry": {
        "type": "Point",
        "coordinates": [
          14.4748352,
          50.0950734
        ]
      },
      "id": "node/31624631"
    },
    {
      "type": "Feature",
      "properties": {
        "@id": "node/31791247",
        "name": "Křížová",
        "public_transport": "stop_position",
        "railway": "tram_stop",
        "source": "Bing;cuzk",
        "tram": "yes",
        "wheelchair": "yes"
      },
      "geometry": {
        "type": "Point",
        "coordinates": [
          14.4046645,
          50.0632744
        ]
      },
      "id": "node/31791247"
    },
    {
      "type": "Feature",
      "properties": {
        "@id": "node/32671566",
        "name": "Nám. Biely kríž",
        "operator": "DPB",
        "public_transport": "stop_position",
        "railway": "tram_stop",
        "tram": "yes"
      },
      "geometry": {
        "type": "Point",
        "coordinates": [
          17.1297673,
          48.1821751
        ]
      },
      "id": "node/32671566"
    },
    {
      "type": "Feature",
      "properties": {
        "@id": "node/33241010",
        "name": "Johannes-Krawarik-Gasse",
        "network": "VOR",
        "public_transport": "stop_position",
        "railway": "tram_stop",
        "ref": "601",
        "tram": "yes"
      },
      "geometry": {
        "type": "Point",
        "coordinates": [
          16.308632,
          48.2138482
        ]
      },
      "id": "node/33241010"
    },
    {
      "type": "Feature",
      "properties": {
        "@id": "node/33301908",
        "name": "Liechtenwerder Platz",
        "network": "VOR",
        "public_transport": "stop_position",
        "railway": "tram_stop",
        "source": "wien.at",
        "tram": "yes"
      },
      "geometry": {
        "type": "Point",
        "coordinates": [
          16.3565508,
          48.2325641
        ]
      },
      "id": "node/33301908"
    },
    {
      "type": "Feature",
      "properties": {
        "@id": "node/33479379",
        "name": "Vozovňa Krasňany",
        "operator": "DPB",
        "public_transport": "stop_position",
        "railway": "tram_stop",
        "tram": "yes"
      },
      "geometry": {
        "type": "Point",
        "coordinates": [
          17.1362371,
          48.1888511
        ]
      },
      "id": "node/33479379"
    },
    {
      "type": "Feature",
      "properties": {
        "@id": "node/33479408",
        "name": "Černockého",
        "operator": "DPB",
        "public_transport": "stop_position",
        "railway": "tram_stop",
        "tram": "yes"
      },
      "geometry": {
        "type": "Point",
        "coordinates": [
          17.1476112,
          48.1997142
        ]
      },
      "id": "node/33479408"
    },
    {
      "type": "Feature",
      "properties": {
        "@id": "node/34821794",
        "name": "Palmovka",
        "name:de": "Palmhof",
        "public_transport": "stop_position",
        "railway": "tram_stop",
        "ref": "U529Z2",
        "source": "cz:IPRPraha:ortofoto",
        "tram": "yes"
      },
      "geometry": {
        "type": "Point",
        "coordinates": [
          14.4748096,
          50.1039385
        ]
      },
      "id": "node/34821794"
    },
    {
      "type": "Feature",
      "properties": {
        "@id": "node/35464457",
        "name": "Kamenné nám.",
        "name:de": "Steinplatz",
        "operator": "DPB",
        "public_transport": "stop_position",
        "railway": "tram_stop",
        "tram": "yes"
      },
      "geometry": {
        "type": "Point",
        "coordinates": [
          17.113559,
          48.1455395
        ]
      },
      "id": "node/35464457"
    },
    {
      "type": "Feature",
      "properties": {
        "@id": "node/40765715",
        "name": "Goethekreuzung",
        "public_transport": "stop_position",
        "railway": "tram_stop",
        "tram": "yes",
        "wheelchair": "yes"
      },
      "geometry": {
        "type": "Point",
        "coordinates": [
          14.292123,
          48.2960266
        ]
      },
      "id": "node/40765715"
    },
    {
      "type": "Feature",
      "properties": {
        "@id": "node/40769338",
        "name": "Harbach",
        "public_transport": "stop_position",
        "railway": "tram_stop",
        "tram": "yes"
      },
      "geometry": {
        "type": "Point",
        "coordinates": [
          14.2847952,
          48.3267816
        ]
      },
      "id": "node/40769338"
    },
    {
      "type": "Feature",
      "properties": {
        "@id": "node/40769344",
        "name": "Harbachseidelung",
        "name:de": "Harbachsiedlung",
        "public_transport": "stop_position",
        "railway": "tram_stop",
        "tram": "yes"
      },
      "geometry": {
        "type": "Point",
        "coordinates": [
          14.2877651,
          48.3295978
        ]
      },
      "id": "node/40769344"
    },
    {
      "type": "Feature",
      "properties": {
        "@id": "node/40769346",
        "name": "Gründberg",
        "public_transport": "stop_position",
        "railway": "tram_stop",
        "tram": "yes"
      },
      "geometry": {
        "type": "Point",
        "coordinates": [
          14.2902,
          48.3323161
        ]
      },
      "id": "node/40769346"
    },
    {
      "type": "Feature",
      "properties": {
        "@id": "node/40771190",
        "public_transport": "stop_position",
        "railway": "tram_stop",
        "tram": "yes"
      },
      "geometry": {
        "type": "Point",
        "coordinates": [
          14.3004945,
          48.334061
        ]
      },
      "id": "node/40771190"
    },
    {
      "type": "Feature",
      "properties": {
        "@id": "node/40771206",
        "public_transport": "stop_position",
        "railway": "tram_stop",
        "tram": "yes"
      },
      "geometry": {
        "type": "Point",
        "coordinates": [
          14.3086888,
          48.3327248
        ]
      },
      "id": "node/40771206"
    },
    {
      "type": "Feature",
      "properties": {
        "@id": "node/40773303",
        "name": "JKU Universität",
        "public_transport": "stop_position",
        "railway": "tram_stop",
        "tram": "yes",
        "wheelchair": "limited"
      },
      "geometry": {
        "type": "Point",
        "coordinates": [
          14.3201527,
          48.3347944
        ]
      },
      "id": "node/40773303"
    },
    {
      "type": "Feature",
      "properties": {
        "@id": "node/40795402",
        "name": "Herz-Jesu-Kirche",
        "public_transport": "stop_position",
        "railway": "tram_stop",
        "tram": "yes"
      },
      "geometry": {
        "type": "Point",
        "coordinates": [
          14.3004676,
          48.287082
        ]
      },
      "id": "node/40795402"
    },
    {
      "type": "Feature",
      "properties": {
        "@id": "node/40795406",
        "name": "Unionkreuzung",
        "public_transport": "stop_position",
        "railway": "tram_stop",
        "tram": "yes",
        "wheelchair": "limited"
      },
      "geometry": {
        "type": "Point",
        "coordinates": [
          14.2973552,
          48.2904283
        ]
      },
      "id": "node/40795406"
    },
    {
      "type": "Feature",
      "properties": {
        "@id": "node/44790452",
        "name": "Remise Kleinmünchen",
        "public_transport": "stop_position",
        "railway": "tram_stop",
        "tram": "yes"
      },
      "geometry": {
        "type": "Point",
        "coordinates": [
          14.3211432,
          48.2585958
        ]
      },
      "id": "node/44790452"
    },
    {
      "type": "Feature",
      "properties": {
        "@id": "node/44790453",
        "name": "Wahringerstraße",
        "public_transport": "stop_position",
        "railway": "tram_stop",
        "tram": "yes"
      },
      "geometry": {
        "type": "Point",
        "coordinates": [
          14.3178818,
          48.2654175
        ]
      },
      "id": "node/44790453"
    },
    {
      "type": "Feature",
      "properties": {
        "@id": "node/44794306",
        "name": "Auwiesen",
        "public_transport": "stop_position",
        "railway": "tram_stop",
        "tram": "yes",
        "wheelchair": "yes"
      },
      "geometry": {
        "type": "Point",
        "coordinates": [
          14.3083835,
          48.2488702
        ]
      },
      "id": "node/44794306"
    },
    {
      "type": "Feature",
      "properties": {
        "@id": "node/55176099",
        "name": "ŽST Nové Mesto",
        "operator": "DPB",
        "public_transport": "stop_position",
        "railway": "tram_stop",
        "tram": "yes",
        "wheelchair": "limited"
      },
      "geometry": {
        "type": "Point",
        "coordinates": [
          17.1454668,
          48.1715369
        ]
      },
      "id": "node/55176099"
    },
    {
      "type": "Feature",
      "properties": {
        "@id": "node/55538877",
        "name": "Sídliště Červený Vrch",
        "public_transport": "stop_position",
        "railway": "tram_stop",
        "shelter": "yes",
        "source": "Bing",
        "tram": "yes",
        "wheelchair": "yes"
      },
      "geometry": {
        "type": "Point",
        "coordinates": [
          14.3591886,
          50.0980025
        ]
      },
      "id": "node/55538877"
    },
    {
      "type": "Feature",
      "properties": {
        "@id": "node/55543528",
        "name": "Bořislavka",
        "name:de": "Borislaus-Hof",
        "old_name": "Horoměřická",
        "public_transport": "stop_position",
        "railway": "tram_stop",
        "source": "survey",
        "tram": "yes"
      },
      "geometry": {
        "type": "Point",
        "coordinates": [
          14.3643619,
          50.0985587
        ]
      },
      "id": "node/55543528"
    },
    {
      "type": "Feature",
      "properties": {
        "@id": "node/55543540",
        "name": "Na Pískách",
        "name:de": "Sandberg",
        "old_name": "Bořislavka",
        "old_name:de": "Borislaus-Hof",
        "public_transport": "stop_position",
        "railway": "tram_stop",
        "source": "Bing",
        "tram": "yes"
      },
      "geometry": {
        "type": "Point",
        "coordinates": [
          14.3696592,
          50.0989748
        ]
      },
      "id": "node/55543540"
    },
    {
      "type": "Feature",
      "properties": {
        "@id": "node/55552059",
        "name": "Hadovka",
        "public_transport": "stop_position",
        "railway": "tram_stop",
        "source": "Bing",
        "tram": "yes"
      },
      "geometry": {
        "type": "Point",
        "coordinates": [
          14.3751335,
          50.0994415
        ]
      },
      "id": "node/55552059"
    },
    {
      "type": "Feature",
      "properties": {
        "@id": "node/55552100",
        "name": "Thákurova",
        "public_transport": "stop_position",
        "railway": "tram_stop",
        "source": "Bing",
        "tram": "yes"
      },
      "geometry": {
        "type": "Point",
        "coordinates": [
          14.3866269,
          50.1001108
        ]
      },
      "id": "node/55552100"
    },
    {
      "type": "Feature",
      "properties": {
        "@id": "node/55552102",
        "name": "Dejvická",
        "name:de": "Dejwitz",
        "public_transport": "stop_position",
        "railway": "tram_stop",
        "shelter": "yes",
        "source": "Bing",
        "tram": "yes"
      },
      "geometry": {
        "type": "Point",
        "coordinates": [
          14.3915194,
          50.1003628
        ]
      },
      "id": "node/55552102"
    },
    {
      "type": "Feature",
      "properties": {
        "@id": "node/55552358",
        "name": "Vítězné náměstí",
        "name:de": "Siegesplatz",
        "public_transport": "stop_position",
        "railway": "tram_stop",
        "source": "Bing;cuzk",
        "tram": "yes"
      },
      "geometry": {
        "type": "Point",
        "coordinates": [
          14.3955163,
          50.0995032
        ]
      },
      "id": "node/55552358"
    },
    {
      "type": "Feature",
      "properties": {
        "@id": "node/57520639",
        "name": "Schottenring",
        "public_transport": "stop_position",
        "railway": "tram_stop",
        "ref": "1182",
        "tram": "yes"
      },
      "geometry": {
        "type": "Point",
        "coordinates": [
          16.3713545,
          48.2167633
        ]
      },
      "id": "node/57520639"
    },
    {
      "type": "Feature",
      "properties": {
        "@id": "node/60296228",
        "name": "Wexstraße",
        "public_transport": "stop_position",
        "railway": "tram_stop",
        "ref": "1470",
        "source": "wien.at",
        "tram": "yes",
        "wheelchair": "limited"
      },
      "geometry": {
        "type": "Point",
        "coordinates": [
          16.3657805,
          48.2359895
        ]
      },
      "id": "node/60296228"
    },
    {
      "type": "Feature",
      "properties": {
        "@id": "node/60296237",
        "name": "Höchstädtplatz",
        "public_transport": "stop_position",
        "railway": "tram_stop",
        "tram": "yes",
        "wheelchair": "yes",
        "wheelchair:description": "Haltestelle der Linien 31 nach Stammersdorf und 33 nach Friedrich--Engels-Platz."
      },
      "geometry": {
        "type": "Point",
        "coordinates": [
          16.3764417,
          48.239015
        ]
      },
      "id": "node/60296237"
    },
    {
      "type": "Feature",
      "properties": {
        "@id": "node/60296274",
        "local_ref": "E",
        "name": "Floridsdorf",
        "public_transport": "stop_position",
        "railway": "tram_stop",
        "ref": "334",
        "tram": "yes",
        "wheelchair": "yes"
      },
      "geometry": {
        "type": "Point",
        "coordinates": [
          16.3995396,
          48.2572693
        ]
      },
      "id": "node/60296274"
    },
    {
      "type": "Feature",
      "properties": {
        "@id": "node/60296286",
        "bus": "yes",
        "name": "Bahnsteggasse",
        "network": "VOR",
        "public_transport": "stop_position",
        "railway": "tram_stop",
        "ref": "1554",
        "tram": "yes"
      },
      "geometry": {
        "type": "Point",
        "coordinates": [
          16.4019173,
          48.2648618
        ]
      },
      "id": "node/60296286"
    },
    {
      "type": "Feature",
      "properties": {
        "@id": "node/60296288",
        "bus": "yes",
        "name": "Brünner Straße",
        "network": "VOR",
        "public_transport": "stop_position",
        "railway": "tram_stop",
        "ref": "176",
        "tram": "yes",
        "wheelchair": "yes"
      },
      "geometry": {
        "type": "Point",
        "coordinates": [
          16.4039347,
          48.2683655
        ]
      },
      "id": "node/60296288"
    },
    {
      "type": "Feature",
      "properties": {
        "@id": "node/60296294",
        "bus": "yes",
        "name": "Großjedlersdorf",
        "public_transport": "stop_position",
        "railway": "tram_stop",
        "ref": "431",
        "tram": "yes",
        "wheelchair": "yes"
      },
      "geometry": {
        "type": "Point",
        "coordinates": [
          16.4088361,
          48.2768329
        ]
      },
      "id": "node/60296294"
    },
    {
      "type": "Feature",
      "properties": {
        "@id": "node/60296296",
        "bus": "yes",
        "name": "Carabelligasse",
        "public_transport": "stop_position",
        "railway": "tram_stop",
        "ref": "203",
        "tram": "yes",
        "wheelchair": "yes"
      },
      "geometry": {
        "type": "Point",
        "coordinates": [
          16.411059,
          48.2805607
        ]
      },
      "id": "node/60296296"
    },
    {
      "type": "Feature",
      "properties": {
        "@id": "node/60676388",
        "bus": "yes",
        "direction": "forward",
        "highway": "bus_stop",
        "name": "Ring, Volkstheater",
        "network": "VOR",
        "public_transport": "stop_position",
        "railway": "tram_stop",
        "tram": "yes",
        "wheelchair": "yes"
      },
      "geometry": {
        "type": "Point",
        "coordinates": [
          16.3596565,
          48.2067554
        ]
      },
      "id": "node/60676388"
    },
    {
      "type": "Feature",
      "properties": {
        "@id": "node/60676396",
        "name": "Schmerlingplatz, Volkstheater",
        "network": "VOR",
        "public_transport": "stop_position",
        "railway": "tram_stop",
        "source": "wien.at",
        "tram": "yes"
      },
      "geometry": {
        "type": "Point",
        "coordinates": [
          16.3583116,
          48.2063909
        ]
      },
      "id": "node/60676396"
    },
    {
      "type": "Feature",
      "properties": {
        "@id": "node/60676404",
        "bus": "yes",
        "highway": "bus_stop",
        "name": "Auerspergstraße",
        "network": "VOR",
        "public_transport": "stop_position",
        "railway": "tram_stop",
        "shelter": "yes",
        "tram": "yes",
        "wheelchair": "yes"
      },
      "geometry": {
        "type": "Point",
        "coordinates": [
          16.3553581,
          48.2068069
        ]
      },
      "id": "node/60676404"
    },
    {
      "type": "Feature",
      "properties": {
        "@id": "node/60676410",
        "name": "Thaliastraße",
        "network": "VOR",
        "public_transport": "stop_position",
        "railway": "tram_stop",
        "ref": "1372",
        "tram": "yes"
      },
      "geometry": {
        "type": "Point",
        "coordinates": [
          16.3384311,
          48.2085965
        ]
      },
      "id": "node/60676410"
    },
    {
      "type": "Feature",
      "properties": {
        "@id": "node/60676432",
        "bus": "yes",
        "highway": "bus_stop",
        "name": "Joachimsthalerplatz",
        "network": "VOR",
        "public_transport": "stop_position",
        "railway": "tram_stop",
        "tram": "yes"
      },
      "geometry": {
        "type": "Point",
        "coordinates": [
          16.3045483,
          48.2089504
        ]
      },
      "id": "node/60676432"
    },
    {
      "type": "Feature",
      "properties": {
        "@id": "node/60709251",
        "name": "Vltavská",
        "public_transport": "stop_position",
        "railway": "tram_stop",
        "tram": "yes"
      },
      "geometry": {
        "type": "Point",
        "coordinates": [
          14.4373213,
          50.0986409
        ]
      },
      "id": "node/60709251"
    },
    {
      "type": "Feature",
      "properties": {
        "@id": "node/60709261",
        "name": "Štvanice",
        "name:de": "Hetzinsel",
        "network": "PID",
        "operator": "cz:DPP",
        "public_transport": "stop_position",
        "railway": "tram_stop",
        "start_date": "2017-03-25",
        "tram": "yes"
      },
      "geometry": {
        "type": "Point",
        "coordinates": [
          14.4369646,
          50.0951888
        ]
      },
      "id": "node/60709261"
    },
    {
      "type": "Feature",
      "properties": {
        "@id": "node/60739232",
        "name": "Hohe Warte",
        "public_transport": "stop_position",
        "railway": "tram_stop",
        "tram": "yes"
      },
      "geometry": {
        "type": "Point",
        "coordinates": [
          16.3554815,
          48.2510155
        ]
      },
      "id": "node/60739232"
    },
    {
      "type": "Feature",
      "properties": {
        "@id": "node/61682537",
        "name": "Strebersdorf, Edmund-Hawranek-Platz",
        "public_transport": "stop_position",
        "railway": "tram_stop",
        "ref": "260",
        "tram": "yes"
      },
      "geometry": {
        "type": "Point",
        "coordinates": [
          16.386597,
          48.2913681
        ]
      },
      "id": "node/61682537"
    },
    {
      "type": "Feature",
      "properties": {
        "@id": "node/62638506",
        "bus": "yes",
        "highway": "bus_stop",
        "name": "Oberzellergasse",
        "network": "VOR",
        "public_transport": "stop_position",
        "railway": "tram_stop",
        "tram": "yes"
      },
      "geometry": {
        "type": "Point",
        "coordinates": [
          16.395234,
          48.1917618
        ]
      },
      "id": "node/62638506"
    },
    {
      "type": "Feature",
      "properties": {
        "@id": "node/62638511",
        "name": "Kleistgasse",
        "network": "VOR",
        "public_transport": "stop_position",
        "railway": "tram_stop",
        "tram": "yes"
      },
      "geometry": {
        "type": "Point",
        "coordinates": [
          16.3902636,
          48.1936788
        ]
      },
      "id": "node/62638511"
    },
    {
      "type": "Feature",
      "properties": {
        "@id": "node/62645831",
        "name": "Enkplatz/Grillgasse",
        "public_transport": "stop_position",
        "railway": "tram_stop",
        "tram": "yes"
      },
      "geometry": {
        "type": "Point",
        "coordinates": [
          16.4159863,
          48.1744936
        ]
      },
      "id": "node/62645831"
    },
    {
      "type": "Feature",
      "properties": {
        "@id": "node/62645839",
        "bus": "yes",
        "highway": "bus_stop",
        "name": "St. Marx",
        "network": "VOR",
        "public_transport": "stop_position",
        "railway": "tram_stop",
        "tram": "yes"
      },
      "geometry": {
        "type": "Point",
        "coordinates": [
          16.4002273,
          48.1884903
        ]
      },
      "id": "node/62645839"
    },
    {
      "type": "Feature",
      "properties": {
        "@id": "node/62647432",
        "name": "Zentralfriedhof 1. Tor",
        "public_transport": "stop_position",
        "railway": "tram_stop",
        "tram": "yes"
      },
      "geometry": {
        "type": "Point",
        "coordinates": [
          16.4335301,
          48.1588921
        ]
      },
      "id": "node/62647432"
    },
    {
      "type": "Feature",
      "properties": {
        "@id": "node/62648149",
        "name": "Zentralfriedhof 3. Tor",
        "network": "VOR",
        "public_transport": "stop_position",
        "railway": "tram_stop",
        "tram": "yes"
      },
      "geometry": {
        "type": "Point",
        "coordinates": [
          16.4489404,
          48.1523807
        ]
      },
      "id": "node/62648149"
    },
    {
      "type": "Feature",
      "properties": {
        "@id": "node/62648152",
        "name": "Zentralfriedhof 3. Tor",
        "network": "VOR",
        "public_transport": "stop_position",
        "railway": "tram_stop",
        "tram": "yes",
        "wheelchair": "yes"
      },
      "geometry": {
        "type": "Point",
        "coordinates": [
          16.4483197,
          48.1527612
        ]
      },
      "id": "node/62648152"
    },
    {
      "type": "Feature",
      "properties": {
        "@id": "node/62650716",
        "name": "Kaiserebersdorf, Zinnergasse",
        "network": "VOR",
        "public_transport": "stop_position",
        "railway": "tram_stop",
        "tram": "yes"
      },
      "geometry": {
        "type": "Point",
        "coordinates": [
          16.4702899,
          48.1595162
        ]
      },
      "id": "node/62650716"
    },
    {
      "type": "Feature",
      "properties": {
        "@id": "node/62650722",
        "name": "Svetelskystraße",
        "network": "VOR",
        "public_transport": "stop_position",
        "railway": "tram_stop",
        "source": "wien.at",
        "tram": "yes"
      },
      "geometry": {
        "type": "Point",
        "coordinates": [
          16.4654158,
          48.1543127
        ]
      },
      "id": "node/62650722"
    },
    {
      "type": "Feature",
      "properties": {
        "@id": "node/62650728",
        "name": "Leberberg",
        "public_transport": "stop_position",
        "railway": "tram_stop",
        "tram": "yes"
      },
      "geometry": {
        "type": "Point",
        "coordinates": [
          16.4592857,
          48.1550735
        ]
      },
      "id": "node/62650728"
    },
    {
      "type": "Feature",
      "properties": {
        "@id": "node/62650734",
        "name": "Pantucekgasse/Widholzgasse",
        "public_transport": "stop_position",
        "railway": "tram_stop",
        "tram": "yes"
      },
      "geometry": {
        "type": "Point",
        "coordinates": [
          16.4555024,
          48.154839
        ]
      },
      "id": "node/62650734"
    },
    {
      "type": "Feature",
      "properties": {
        "@id": "node/62663065",
        "name": "Prater Hauptallee",
        "public_transport": "stop_position",
        "railway": "tram_stop",
        "tram": "yes"
      },
      "geometry": {
        "type": "Point",
        "coordinates": [
          16.4058698,
          48.2089469
        ]
      },
      "id": "node/62663065"
    },
    {
      "type": "Feature",
      "properties": {
        "@id": "node/65472969",
        "bus": "yes",
        "highway": "bus_stop",
        "name": "Teplárna Michle",
        "public_transport": "stop_position",
        "railway": "tram_stop",
        "source": "Bing",
        "tram": "yes"
      },
      "geometry": {
        "type": "Point",
        "coordinates": [
          14.4748546,
          50.0527093
        ]
      },
      "id": "node/65472969"
    },
    {
      "type": "Feature",
      "properties": {
        "@id": "node/66846522",
        "bus": "yes",
        "name": "Ring, Volkstheater",
        "network": "VOR",
        "public_transport": "stop_position",
        "railway": "tram_stop",
        "tram": "yes",
        "wheelchair": "limited",
        "wheelchair:description": "tlw. noch alte, nicht rollstuhlgerechte Straßenbahnen unterwegs"
      },
      "geometry": {
        "type": "Point",
        "coordinates": [
          16.3600086,
          48.2068104
        ]
      },
      "id": "node/66846522"
    },
    {
      "type": "Feature",
      "properties": {
        "@id": "node/66846538",
        "name": "Schwarzenbergplatz",
        "network": "VOR",
        "public_transport": "stop_position",
        "railway": "tram_stop",
        "tram": "yes"
      },
      "geometry": {
        "type": "Point",
        "coordinates": [
          16.3747144,
          48.2018171
        ]
      },
      "id": "node/66846538"
    },
    {
      "type": "Feature",
      "properties": {
        "@id": "node/66846547",
        "bus": "yes",
        "name": "Stubentor",
        "network": "VOR",
        "public_transport": "stop_position",
        "railway": "tram_stop",
        "tram": "yes",
        "wheelchair": "yes"
      },
      "geometry": {
        "type": "Point",
        "coordinates": [
          16.3800739,
          48.206867
        ]
      },
      "id": "node/66846547"
    },
    {
      "type": "Feature",
      "properties": {
        "@id": "node/66846584",
        "name": "Schottenring",
        "public_transport": "stop_position",
        "railway": "tram_stop",
        "ref": "1182",
        "tram": "yes"
      },
      "geometry": {
        "type": "Point",
        "coordinates": [
          16.3710918,
          48.2167555
        ]
      },
      "id": "node/66846584"
    },
    {
      "type": "Feature",
      "properties": {
        "@id": "node/66846600",
        "name": "Schottentor",
        "network": "VOR",
        "public_transport": "stop_position",
        "railway": "tram_stop",
        "ref": "1184",
        "tram": "yes",
        "wheelchair": "yes"
      },
      "geometry": {
        "type": "Point",
        "coordinates": [
          16.3621334,
          48.2137285
        ]
      },
      "id": "node/66846600"
    },
    {
      "type": "Feature",
      "properties": {
        "@id": "node/66857964",
        "name": "Schwarzenbergplatz",
        "network": "VOR",
        "public_transport": "stop_position",
        "railway": "tram_stop",
        "tram": "yes",
        "wheelchair": "yes"
      },
      "geometry": {
        "type": "Point",
        "coordinates": [
          16.3746621,
          48.2011026
        ]
      },
      "id": "node/66857964"
    },
    {
      "type": "Feature",
      "properties": {
        "@id": "node/66857967",
        "name": "Schwarzenbergplatz",
        "network": "VOR",
        "public_transport": "stop_position",
        "railway": "tram_stop",
        "tram": "yes"
      },
      "geometry": {
        "type": "Point",
        "coordinates": [
          16.3748489,
          48.2016202
        ]
      },
      "id": "node/66857967"
    },
    {
      "type": "Feature",
      "properties": {
        "@id": "node/66857971",
        "name": "Schwarzenbergplatz",
        "network": "VOR",
        "public_transport": "stop_position",
        "railway": "tram_stop",
        "tram": "yes",
        "wheelchair": "yes"
      },
      "geometry": {
        "type": "Point",
        "coordinates": [
          16.3747194,
          48.2006357
        ]
      },
      "id": "node/66857971"
    },
    {
      "type": "Feature",
      "properties": {
        "@id": "node/66858431",
        "name": "Gußhausstraße",
        "network": "VOR",
        "public_transport": "stop_position",
        "railway": "tram_stop",
        "ref": "446",
        "tram": "yes"
      },
      "geometry": {
        "type": "Point",
        "coordinates": [
          16.3750838,
          48.198162
        ]
      },
      "id": "node/66858431"
    },
    {
      "type": "Feature",
      "properties": {
        "@id": "node/66859499",
        "name": "Quartier Belvedere",
        "network": "VOR",
        "public_transport": "stop_position",
        "railway": "tram_stop",
        "tram": "yes",
        "wheelchair": "yes"
      },
      "geometry": {
        "type": "Point",
        "coordinates": [
          16.38143,
          48.1877054
        ]
      },
      "id": "node/66859499"
    },
    {
      "type": "Feature",
      "properties": {
        "@id": "node/68162192",
        "name": "Schottentor",
        "public_transport": "stop_position",
        "railway": "tram_stop",
        "ref": "43;44",
        "tram": "yes",
        "wheelchair": "yes"
      },
      "geometry": {
        "type": "Point",
        "coordinates": [
          16.361897,
          48.2139362
        ]
      },
      "id": "node/68162192"
    },
    {
      "type": "Feature",
      "properties": {
        "@id": "node/68169454",
        "bus": "yes",
        "highway": "bus_stop",
        "name": "Palffygasse",
        "network": "VOR",
        "public_transport": "stop_position",
        "railway": "tram_stop",
        "shelter": "yes",
        "tram": "yes"
      },
      "geometry": {
        "type": "Point",
        "coordinates": [
          16.3366135,
          48.2175849
        ]
      },
      "id": "node/68169454"
    },
    {
      "type": "Feature",
      "properties": {
        "@id": "node/68175575",
        "bus": "yes",
        "highway": "bus_stop",
        "name": "Hernals, Wattgasse",
        "network": "VOR",
        "public_transport": "stop_position",
        "railway": "tram_stop",
        "tram": "yes"
      },
      "geometry": {
        "type": "Point",
        "coordinates": [
          16.3217192,
          48.22143
        ]
      },
      "id": "node/68175575"
    },
    {
      "type": "Feature",
      "properties": {
        "@id": "node/68203671",
        "name": "Franz-Josefs-Bahnhof",
        "public_transport": "stop_position",
        "railway": "tram_stop",
        "ref": "345",
        "tram": "yes",
        "wheelchair": "yes"
      },
      "geometry": {
        "type": "Point",
        "coordinates": [
          16.3610958,
          48.2257779
        ]
      },
      "id": "node/68203671"
    },
    {
      "type": "Feature",
      "properties": {
        "@id": "node/74185201",
        "name": "Malostranská",
        "name:de": "Kleinseite",
        "public_transport": "stop_position",
        "railway": "tram_stop",
        "tram": "yes"
      },
      "geometry": {
        "type": "Point",
        "coordinates": [
          14.4101303,
          50.0903723
        ]
      },
      "id": "node/74185201"
    },
    {
      "type": "Feature",
      "properties": {
        "@id": "node/74196163",
        "name": "Malostranské náměstí",
        "name:de": "Kleinseitner Ring",
        "public_transport": "stop_position",
        "railway": "tram_stop",
        "tram": "yes",
        "wheelchair": "yes"
      },
      "geometry": {
        "type": "Point",
        "coordinates": [
          14.404359,
          50.0879929
        ]
      },
      "id": "node/74196163"
    },
    {
      "type": "Feature",
      "properties": {
        "@id": "node/74218289",
        "name": "Újezd",
        "name:de": "Aujest",
        "public_transport": "stop_position",
        "railway": "tram_stop",
        "source": "bing;cuzk",
        "tram": "yes"
      },
      "geometry": {
        "type": "Point",
        "coordinates": [
          14.4051734,
          50.0812021
        ]
      },
      "id": "node/74218289"
    },
    {
      "type": "Feature",
      "properties": {
        "@id": "node/74218292",
        "name": "Hellichova",
        "public_transport": "stop_position",
        "railway": "tram_stop",
        "tram": "yes"
      },
      "geometry": {
        "type": "Point",
        "coordinates": [
          14.4043873,
          50.0842007
        ]
      },
      "id": "node/74218292"
    },
    {
      "type": "Feature",
      "properties": {
        "@id": "node/74218301",
        "name": "Národní divadlo",
        "name:de": "Nationaltheater",
        "public_transport": "stop_position",
        "railway": "tram_stop",
        "source": "bing;cuzk",
        "tram": "yes",
        "wheelchair": "yes"
      },
      "geometry": {
        "type": "Point",
        "coordinates": [
          14.4140068,
          50.0814355
        ]
      },
      "id": "node/74218301"
    },
    {
      "type": "Feature",
      "properties": {
        "@id": "node/74218306",
        "name": "Staroměstská",
        "operator": "Tram 17, 2, 18",
        "public_transport": "stop_position",
        "railway": "tram_stop",
        "tram": "yes"
      },
      "geometry": {
        "type": "Point",
        "coordinates": [
          14.4155111,
          50.0884668
        ]
      },
      "id": "node/74218306"
    },
    {
      "type": "Feature",
      "properties": {
        "@id": "node/74344893",
        "name": "Palmovka",
        "name:de": "Palmhof",
        "public_transport": "stop_position",
        "railway": "tram_stop",
        "ref": "U529Z1",
        "source": "cz:IPRPraha:ortofoto",
        "tram": "yes"
      },
      "geometry": {
        "type": "Point",
        "coordinates": [
          14.4734126,
          50.1024827
        ]
      },
      "id": "node/74344893"
    },
    {
      "type": "Feature",
      "properties": {
        "@id": "node/75053649",
        "name": "Prostorná",
        "network": "cz:ODIS",
        "operator": "Dopravní podnik Ostrava",
        "railway": "tram_stop",
        "source": "HELP SERVICE - REMOTE SENSING spol. s r.o. http://www.bnhelp.cz"
      },
      "geometry": {
        "type": "Point",
        "coordinates": [
          18.2500547,
          49.8268342
        ]
      },
      "id": "node/75053649"
    },
    {
      "type": "Feature",
      "properties": {
        "@id": "node/79721398",
        "direction": "both",
        "name": "Urban-Loritz-Platz",
        "network": "VOR",
        "operator": "Wiener Linien",
        "public_transport": "stop_position",
        "railway": "tram_stop",
        "ref": "1413",
        "tram": "yes",
        "wheelchair": "yes"
      },
      "geometry": {
        "type": "Point",
        "coordinates": [
          16.3376565,
          48.2013151
        ]
      },
      "id": "node/79721398"
    },
    {
      "type": "Feature",
      "properties": {
        "@id": "node/83812435",
        "name": "Trnavské mýto",
        "operator": "DPB",
        "public_transport": "stop_position",
        "railway": "tram_stop",
        "tram": "yes"
      },
      "geometry": {
        "type": "Point",
        "coordinates": [
          17.1274982,
          48.1578266
        ]
      },
      "id": "node/83812435"
    },
    {
      "type": "Feature",
      "properties": {
        "@id": "node/83819412",
        "name": "Vysoká, Tchibo Outlet",
        "old_name": "Vysoká",
        "operator": "DPB",
        "public_transport": "stop_position",
        "railway": "tram_stop",
        "tram": "yes"
      },
      "geometry": {
        "type": "Point",
        "coordinates": [
          17.1123005,
          48.1484611
        ]
      },
      "id": "node/83819412"
    },
    {
      "type": "Feature",
      "properties": {
        "@id": "node/83831675",
        "name": "Americké nám.",
        "operator": "DPB",
        "public_transport": "stop_position",
        "railway": "tram_stop",
        "tram": "yes"
      },
      "geometry": {
        "type": "Point",
        "coordinates": [
          17.1179506,
          48.151106
        ]
      },
      "id": "node/83831675"
    },
    {
      "type": "Feature",
      "properties": {
        "@id": "node/84546994",
        "local_ref": "A",
        "name": "Wien Mitte-Landstraße",
        "public_transport": "stop_position",
        "railway": "tram_stop",
        "tram": "yes"
      },
      "geometry": {
        "type": "Point",
        "coordinates": [
          16.3857215,
          48.2060607
        ]
      },
      "id": "node/84546994"
    },
    {
      "type": "Feature",
      "properties": {
        "@id": "node/84614127",
        "name": "Fasangasse",
        "network": "VOR",
        "operator": "Wiener Linien",
        "public_transport": "stop_position",
        "railway": "tram_stop",
        "ref": "300",
        "tram": "yes"
      },
      "geometry": {
        "type": "Point",
        "coordinates": [
          16.3847106,
          48.1882682
        ]
      },
      "id": "node/84614127"
    },
    {
      "type": "Feature",
      "properties": {
        "@id": "node/84616412",
        "local_ref": "B",
        "name": "Praterstern",
        "network": "VOR",
        "public_transport": "stop_position",
        "railway": "tram_stop",
        "tram": "yes",
        "wheelchair": "yes"
      },
      "geometry": {
        "type": "Point",
        "coordinates": [
          16.3914112,
          48.2181492
        ]
      },
      "id": "node/84616412"
    },
    {
      "type": "Feature",
      "properties": {
        "@id": "node/101608774",
        "name": "Schableder",
        "public_transport": "stop_position",
        "railway": "tram_stop",
        "tram": "yes"
      },
      "geometry": {
        "type": "Point",
        "coordinates": [
          14.2606659,
          48.3140669
        ]
      },
      "id": "node/101608774"
    },
    {
      "type": "Feature",
      "properties": {
        "@id": "node/101608984",
        "name": "Einschnitt",
        "public_transport": "stop_position",
        "railway": "tram_stop",
        "tram": "yes"
      },
      "geometry": {
        "type": "Point",
        "coordinates": [
          14.257726,
          48.3186576
        ]
      },
      "id": "node/101608984"
    },
    {
      "type": "Feature",
      "properties": {
        "@id": "node/101609000",
        "name": "Oberschableder",
        "public_transport": "stop_position",
        "railway": "tram_stop",
        "tram": "yes"
      },
      "geometry": {
        "type": "Point",
        "coordinates": [
          14.2566829,
          48.3199544
        ]
      },
      "id": "node/101609000"
    },
    {
      "type": "Feature",
      "properties": {
        "@id": "node/101609030",
        "name": "Pöstlingberg Schlössl",
        "public_transport": "stop_position",
        "railway": "tram_stop",
        "tram": "yes"
      },
      "geometry": {
        "type": "Point",
        "coordinates": [
          14.2586996,
          48.3228878
        ]
      },
      "id": "node/101609030"
    },
    {
      "type": "Feature",
      "properties": {
        "@id": "node/111897837",
        "name": "Am Heumarkt",
        "network": "VOR",
        "public_transport": "stop_position",
        "railway": "tram_stop",
        "tram": "yes"
      },
      "geometry": {
        "type": "Point",
        "coordinates": [
          16.3771208,
          48.198479
        ]
      },
      "id": "node/111897837"
    },
    {
      "type": "Feature",
      "properties": {
        "@id": "node/114202479",
        "local_ref": "A",
        "name": "Praterstern",
        "network": "VOR",
        "public_transport": "stop_position",
        "railway": "tram_stop",
        "ref": "1040",
        "tram": "yes",
        "wheelchair": "yes"
      },
      "geometry": {
        "type": "Point",
        "coordinates": [
          16.3917009,
          48.2181734
        ]
      },
      "id": "node/114202479"
    },
    {
      "type": "Feature",
      "properties": {
        "@id": "node/115117812",
        "bus": "yes",
        "highway": "bus_stop",
        "name": "Unteres Belvedere",
        "network": "Verkehrsverbund Ost-Region",
        "operator": "Wiener Linien",
        "public_transport": "stop_position",
        "railway": "tram_stop",
        "tram": "yes"
      },
      "geometry": {
        "type": "Point",
        "coordinates": [
          16.3814724,
          48.196569
        ]
      },
      "id": "node/115117812"
    },
    {
      "type": "Feature",
      "properties": {
        "@id": "node/115351343",
        "name": "Schlachthausgasse",
        "network": "VOR",
        "operator": "Wiener Linien",
        "public_transport": "stop_position",
        "railway": "tram_stop",
        "ref": "1199",
        "tram": "yes"
      },
      "geometry": {
        "type": "Point",
        "coordinates": [
          16.4076512,
          48.1941586
        ]
      },
      "id": "node/115351343"
    },
    {
      "type": "Feature",
      "properties": {
        "@id": "node/117439695",
        "name": "Litfaßstraße",
        "network": "VOR",
        "public_transport": "stop_position",
        "railway": "tram_stop",
        "tram": "yes"
      },
      "geometry": {
        "type": "Point",
        "coordinates": [
          16.4049337,
          48.1843542
        ]
      },
      "id": "node/117439695"
    },
    {
      "type": "Feature",
      "properties": {
        "@id": "node/117459399",
        "name": "Molitorgasse",
        "network": "VOR",
        "public_transport": "stop_position",
        "railway": "tram_stop",
        "tram": "yes"
      },
      "geometry": {
        "type": "Point",
        "coordinates": [
          16.4082034,
          48.1816042
        ]
      },
      "id": "node/117459399"
    },
    {
      "type": "Feature",
      "properties": {
        "@id": "node/117467766",
        "name": "Zippererstraße",
        "network": "VOR",
        "public_transport": "stop_position",
        "railway": "tram_stop",
        "tram": "yes"
      },
      "geometry": {
        "type": "Point",
        "coordinates": [
          16.4106697,
          48.1794406
        ]
      },
      "id": "node/117467766"
    },
    {
      "type": "Feature",
      "properties": {
        "@id": "node/117497588",
        "name": "Hauffgasse",
        "network": "VOR",
        "public_transport": "stop_position",
        "railway": "tram_stop",
        "tram": "yes"
      },
      "geometry": {
        "type": "Point",
        "coordinates": [
          16.412904,
          48.1774898
        ]
      },
      "id": "node/117497588"
    },
    {
      "type": "Feature",
      "properties": {
        "@id": "node/117526485",
        "name": "Simmering",
        "public_transport": "stop_position",
        "railway": "tram_stop",
        "tram": "yes"
      },
      "geometry": {
        "type": "Point",
        "coordinates": [
          16.4203675,
          48.170141
        ]
      },
      "id": "node/117526485"
    },
    {
      "type": "Feature",
      "properties": {
        "@id": "node/122145923",
        "bus": "yes",
        "name": "Nußdorfer Straße/Alserbachstraße",
        "network": "VOR",
        "public_transport": "stop_position",
        "railway": "tram_stop",
        "source": "Hoss",
        "tram": "yes",
        "wheelchair": "yes"
      },
      "geometry": {
        "type": "Point",
        "coordinates": [
          16.3553807,
          48.2248424
        ]
      },
      "id": "node/122145923"
    },
    {
      "type": "Feature",
      "properties": {
        "@id": "node/122505897",
        "name": "Börse",
        "public_transport": "stop_position",
        "railway": "tram_stop",
        "ref": "195",
        "tram": "yes"
      },
      "geometry": {
        "type": "Point",
        "coordinates": [
          16.365782,
          48.2155262
        ]
      },
      "id": "node/122505897"
    },
    {
      "type": "Feature",
      "properties": {
        "@id": "node/122544764",
        "bus": "yes",
        "name": "Julius-Raab-Platz",
        "network": "VOR",
        "public_transport": "stop_position",
        "railway": "tram_stop",
        "tram": "yes",
        "wheelchair": "yes"
      },
      "geometry": {
        "type": "Point",
        "coordinates": [
          16.3830683,
          48.2112477
        ]
      },
      "id": "node/122544764"
    },
    {
      "type": "Feature",
      "properties": {
        "@id": "node/123613192",
        "name": "Marxergasse",
        "network": "VOR",
        "public_transport": "stop_position",
        "railway": "tram_stop",
        "tram": "yes"
      },
      "geometry": {
        "type": "Point",
        "coordinates": [
          16.386529,
          48.2072148
        ]
      },
      "id": "node/123613192"
    },
    {
      "type": "Feature",
      "properties": {
        "@id": "node/123744016",
        "highway": "bus_stop",
        "name": "Raxstraße/Rudolfshügelgasse",
        "network": "VOR",
        "public_transport": "stop_position",
        "railway": "tram_stop",
        "tram": "yes"
      },
      "geometry": {
        "type": "Point",
        "coordinates": [
          16.363587,
          48.1652498
        ]
      },
      "id": "node/123744016"
    },
    {
      "type": "Feature",
      "properties": {
        "@id": "node/123764306",
        "name": "Wienerfeldgasse",
        "public_transport": "stop_position",
        "railway": "tram_stop",
        "tram": "yes"
      },
      "geometry": {
        "type": "Point",
        "coordinates": [
          16.3603429,
          48.158416
        ]
      },
      "id": "node/123764306"
    },
    {
      "type": "Feature",
      "properties": {
        "@id": "node/123764313",
        "name": "Frödenplatz",
        "public_transport": "stop_position",
        "railway": "tram_stop",
        "tram": "yes"
      },
      "geometry": {
        "type": "Point",
        "coordinates": [
          16.3587045,
          48.1556038
        ]
      },
      "id": "node/123764313"
    },
    {
      "type": "Feature",
      "properties": {
        "@id": "node/123768918",
        "name": "Otto-Probst-Straße",
        "public_transport": "stop_position",
        "railway": "tram_stop",
        "tram": "yes"
      },
      "geometry": {
        "type": "Point",
        "coordinates": [
          16.3552854,
          48.1562402
        ]
      },
      "id": "node/123768918"
    },
    {
      "type": "Feature",
      "properties": {
        "@id": "node/123768930",
        "name": "Tesarekplatz",
        "public_transport": "stop_position",
        "railway": "tram_stop",
        "tram": "yes"
      },
      "geometry": {
        "type": "Point",
        "coordinates": [
          16.3507614,
          48.1556557
        ]
      },
      "id": "node/123768930"
    },
    {
      "type": "Feature",
      "properties": {
        "@id": "node/123768948",
        "name": "Otto-Probst-Platz",
        "public_transport": "stop_position",
        "railway": "tram_stop",
        "tram": "yes"
      },
      "geometry": {
        "type": "Point",
        "coordinates": [
          16.3493785,
          48.1538774
        ]
      },
      "id": "node/123768948"
    },
    {
      "type": "Feature",
      "properties": {
        "@id": "node/123860839",
        "name": "Westbahnhof",
        "public_transport": "stop_position",
        "railway": "tram_stop",
        "ref": "1468",
        "tram": "yes",
        "wheelchair": "yes"
      },
      "geometry": {
        "type": "Point",
        "coordinates": [
          16.3394438,
          48.1967636
        ]
      },
      "id": "node/123860839"
    },
    {
      "type": "Feature",
      "properties": {
        "@id": "node/139140158",
        "name": "Stefan-Fadinger-Platz",
        "network": "VOR",
        "public_transport": "stop_position",
        "railway": "tram_stop",
        "tram": "yes",
        "wheelchair": "limited"
      },
      "geometry": {
        "type": "Point",
        "coordinates": [
          16.3541735,
          48.1680905
        ]
      },
      "id": "node/139140158"
    },
    {
      "type": "Feature",
      "properties": {
        "@id": "node/139448553",
        "name": "Divadlo Gong",
        "old_name": "U Svobodárny",
        "public_transport": "stop_position",
        "railway": "tram_stop",
        "tram": "yes"
      },
      "geometry": {
        "type": "Point",
        "coordinates": [
          14.4881511,
          50.1065887
        ]
      },
      "id": "node/139448553"
    },
    {
      "type": "Feature",
      "properties": {
        "@id": "node/139448554",
        "name": "Poliklinika Vysočany",
        "public_transport": "stop_position",
        "railway": "tram_stop",
        "tram": "yes"
      },
      "geometry": {
        "type": "Point",
        "coordinates": [
          14.4947373,
          50.1088752
        ]
      },
      "id": "node/139448554"
    },
    {
      "type": "Feature",
      "properties": {
        "@id": "node/144532415",
        "name": "solarCity-Zentrum",
        "operator": "Linz AG",
        "public_transport": "stop_position",
        "railway": "tram_stop",
        "tram": "yes"
      },
      "geometry": {
        "type": "Point",
        "coordinates": [
          14.3601379,
          48.2576659
        ]
      },
      "id": "node/144532415"
    },
    {
      "type": "Feature",
      "properties": {
        "@id": "node/144532427",
        "name": "Neufelderstraße",
        "public_transport": "stop_position",
        "railway": "tram_stop",
        "tram": "yes"
      },
      "geometry": {
        "type": "Point",
        "coordinates": [
          14.3567621,
          48.2560929
        ]
      },
      "id": "node/144532427"
    },
    {
      "type": "Feature",
      "properties": {
        "@id": "node/144532431",
        "layer": "1",
        "public_transport": "stop_position",
        "railway": "tram_stop",
        "tram": "yes"
      },
      "geometry": {
        "type": "Point",
        "coordinates": [
          14.3475968,
          48.2520566
        ]
      },
      "id": "node/144532431"
    },
    {
      "type": "Feature",
      "properties": {
        "@id": "node/144552846",
        "public_transport": "stop_position",
        "railway": "tram_stop",
        "tram": "yes"
      },
      "geometry": {
        "type": "Point",
        "coordinates": [
          14.3403615,
          48.2480292
        ]
      },
      "id": "node/144552846"
    },
    {
      "type": "Feature",
      "properties": {
        "@id": "node/144552851",
        "name": "Kaserne",
        "public_transport": "stop_position",
        "railway": "tram_stop",
        "tram": "yes"
      },
      "geometry": {
        "type": "Point",
        "coordinates": [
          14.3394813,
          48.2448635
        ]
      },
      "id": "node/144552851"
    },
    {
      "type": "Feature",
      "properties": {
        "@id": "node/158747048",
        "name": "Nový Hloubětín",
        "public_transport": "stop_position",
        "railway": "tram_stop",
        "tram": "yes"
      },
      "geometry": {
        "type": "Point",
        "coordinates": [
          14.528084,
          50.1093198
        ]
      },
      "id": "node/158747048"
    },
    {
      "type": "Feature",
      "properties": {
        "@id": "node/158747117",
        "name": "Starý Hloubětín",
        "public_transport": "stop_position",
        "railway": "tram_stop",
        "source": "Bing;cuzk",
        "tram": "yes"
      },
      "geometry": {
        "type": "Point",
        "coordinates": [
          14.5293011,
          50.1049039
        ]
      },
      "id": "node/158747117"
    },
    {
      "type": "Feature",
      "properties": {
        "@id": "node/165180091",
        "name": "Balabenka",
        "public_transport": "stop_position",
        "railway": "tram_stop",
        "source": "Bing;cuzk",
        "tram": "yes"
      },
      "geometry": {
        "type": "Point",
        "coordinates": [
          14.4818508,
          50.1043705
        ]
      },
      "id": "node/165180091"
    },
    {
      "type": "Feature",
      "properties": {
        "@id": "node/165188438",
        "name": "Ocelářská",
        "public_transport": "stop_position",
        "railway": "tram_stop",
        "source": "Bing;cuzk",
        "tram": "yes"
      },
      "geometry": {
        "type": "Point",
        "coordinates": [
          14.4887162,
          50.1034659
        ]
      },
      "id": "node/165188438"
    },
    {
      "type": "Feature",
      "properties": {
        "@id": "node/165188442",
        "name": "Nádraží Libeň",
        "public_transport": "stop_position",
        "railway": "tram_stop",
        "source": "Bing;cuzk",
        "tram": "yes"
      },
      "geometry": {
        "type": "Point",
        "coordinates": [
          14.5026084,
          50.1019338
        ]
      },
      "id": "node/165188442"
    },
    {
      "type": "Feature",
      "properties": {
        "@id": "node/165188449",
        "name": "Podkovářská",
        "public_transport": "stop_position",
        "railway": "tram_stop",
        "source": "Bing;cuzk",
        "tram": "yes"
      },
      "geometry": {
        "type": "Point",
        "coordinates": [
          14.5142605,
          50.1029774
        ]
      },
      "id": "node/165188449"
    },
    {
      "type": "Feature",
      "properties": {
        "@id": "node/165188451",
        "name": "U Elektry",
        "public_transport": "stop_position",
        "railway": "tram_stop",
        "source": "Bing;cuzk",
        "tram": "yes"
      },
      "geometry": {
        "type": "Point",
        "coordinates": [
          14.5193246,
          50.1034855
        ]
      },
      "id": "node/165188451"
    },
    {
      "type": "Feature",
      "properties": {
        "@id": "node/165188456",
        "name": "Kbelská",
        "public_transport": "stop_position",
        "railway": "tram_stop",
        "tram": "yes"
      },
      "geometry": {
        "type": "Point",
        "coordinates": [
          14.5328507,
          50.1052612
        ]
      },
      "id": "node/165188456"
    },
    {
      "type": "Feature",
      "properties": {
        "@id": "node/165191378",
        "name": "Sídliště Hloubětín",
        "public_transport": "stop_position",
        "railway": "tram_stop",
        "tram": "yes"
      },
      "geometry": {
        "type": "Point",
        "coordinates": [
          14.5433453,
          50.1065338
        ]
      },
      "id": "node/165191378"
    },
    {
      "type": "Feature",
      "properties": {
        "@id": "node/165909686",
        "name": "Bulovka",
        "public_transport": "stop_position",
        "railway": "tram_stop",
        "ref": "U54Z2",
        "shelter": "yes",
        "source": "Bing",
        "tram": "yes",
        "wheelchair": "yes"
      },
      "geometry": {
        "type": "Point",
        "coordinates": [
          14.4677563,
          50.1165073
        ]
      },
      "id": "node/165909686"
    },
    {
      "type": "Feature",
      "properties": {
        "@id": "node/165911572",
        "name": "Vychovatelna",
        "public_transport": "stop_position",
        "railway": "tram_stop",
        "ref": "U870Z2",
        "shelter": "yes",
        "source": "Bing",
        "tram": "yes"
      },
      "geometry": {
        "type": "Point",
        "coordinates": [
          14.4640029,
          50.1191829
        ]
      },
      "id": "node/165911572"
    },
    {
      "type": "Feature",
      "properties": {
        "@id": "node/165937879",
        "name": "Střelničná",
        "public_transport": "stop_position",
        "railway": "tram_stop",
        "ref": "U676Z2",
        "tram": "yes"
      },
      "geometry": {
        "type": "Point",
        "coordinates": [
          14.4594956,
          50.1258477
        ]
      },
      "id": "node/165937879"
    },
    {
      "type": "Feature",
      "properties": {
        "@id": "node/165937890",
        "name": "Štěpničná",
        "public_transport": "stop_position",
        "railway": "tram_stop",
        "ref": "U740Z2",
        "tram": "yes",
        "wheelchair": "no"
      },
      "geometry": {
        "type": "Point",
        "coordinates": [
          14.4781049,
          50.1281492
        ]
      },
      "id": "node/165937890"
    },
    {
      "type": "Feature",
      "properties": {
        "@id": "node/201962883",
        "name": "Nová Ruda",
        "public_transport": "stop_position",
        "railway": "tram_stop",
        "ref:dpmlj": "13012",
        "source": "knowledge",
        "tram": "yes"
      },
      "geometry": {
        "type": "Point",
        "coordinates": [
          15.0799445,
          50.7567286
        ]
      },
      "id": "node/201962883"
    },
    {
      "type": "Feature",
      "properties": {
        "@id": "node/201978524",
        "name": "Kyselka",
        "public_transport": "stop_position",
        "railway": "tram_stop",
        "ref:dpmlj": "13152",
        "tram": "yes"
      },
      "geometry": {
        "type": "Point",
        "coordinates": [
          15.1063432,
          50.7347607
        ]
      },
      "id": "node/201978524"
    },
    {
      "type": "Feature",
      "properties": {
        "@id": "node/201978538",
        "name": "Za Tratí",
        "old_name": "Proseč, škola",
        "public_transport": "stop_position",
        "railway": "tram_stop",
        "ref:dpmlj": "13162",
        "tram": "yes"
      },
      "geometry": {
        "type": "Point",
        "coordinates": [
          15.1111619,
          50.7310994
        ]
      },
      "id": "node/201978538"
    },
    {
      "type": "Feature",
      "properties": {
        "@id": "node/201980368",
        "name": "Proseč n.N. pošta",
        "public_transport": "stop_position",
        "railway": "tram_stop",
        "ref:dpmlj": "13182",
        "tram": "yes"
      },
      "geometry": {
        "type": "Point",
        "coordinates": [
          15.1168071,
          50.7276065
        ]
      },
      "id": "node/201980368"
    },
    {
      "type": "Feature",
      "properties": {
        "@id": "node/201980387",
        "name": "Nový Svět",
        "public_transport": "stop_position",
        "railway": "tram_stop",
        "ref:dpmlj": "13222",
        "tram": "yes"
      },
      "geometry": {
        "type": "Point",
        "coordinates": [
          15.1336719,
          50.7216859
        ]
      },
      "id": "node/201980387"
    },
    {
      "type": "Feature",
      "properties": {
        "@id": "node/201980394",
        "name": "Zelené Údolí",
        "public_transport": "stop_position",
        "railway": "tram_stop",
        "ref:dpmlj": "13242",
        "tram": "yes"
      },
      "geometry": {
        "type": "Point",
        "coordinates": [
          15.144141,
          50.7216154
        ]
      },
      "id": "node/201980394"
    },
    {
      "type": "Feature",
      "properties": {
        "@id": "node/213578413",
        "name": "Darwina",
        "public_transport": "stop_position",
        "railway": "tram_stop",
        "tram": "yes",
        "url": "http://rozklady.mpk.krakow.pl/aktualne/p/p0123.htm"
      },
      "geometry": {
        "type": "Point",
        "coordinates": [
          20.0591386,
          50.0907938
        ]
      },
      "id": "node/213578413"
    },
    {
      "type": "Feature",
      "properties": {
        "@id": "node/213578422",
        "name": "Jarzębiny",
        "public_transport": "stop_position",
        "railway": "tram_stop",
        "tram": "yes",
        "url": "http://rozklady.mpk.krakow.pl/aktualne/p/p0124.htm"
      },
      "geometry": {
        "type": "Point",
        "coordinates": [
          20.0607844,
          50.0919015
        ]
      },
      "id": "node/213578422"
    },
    {
      "type": "Feature",
      "properties": {
        "@id": "node/213578451",
        "name": "Wzgórza Krzesławickie",
        "public_transport": "stop_position",
        "railway": "tram_stop",
        "tram": "yes",
        "url": "http://rozklady.mpk.krakow.pl/aktualne/p/p0125.htm"
      },
      "geometry": {
        "type": "Point",
        "coordinates": [
          20.0652148,
          50.0949232
        ]
      },
      "id": "node/213578451"
    },
    {
      "type": "Feature",
      "properties": {
        "@id": "node/213578731",
        "name": "Kombinat",
        "public_transport": "stop_position",
        "railway": "tram_stop",
        "tram": "yes",
        "url": "http://rozklady.mpk.krakow.pl/aktualne/p/p0107.htm"
      },
      "geometry": {
        "type": "Point",
        "coordinates": [
          20.0650412,
          50.0791355
        ]
      },
      "id": "node/213578731"
    },
    {
      "type": "Feature",
      "properties": {
        "@id": "node/213585855",
        "name": "Cienista",
        "public_transport": "stop_position",
        "railway": "tram_stop",
        "tram": "yes",
        "url": "http://rozklady.mpk.krakow.pl/aktualne/p/p0120.htm"
      },
      "geometry": {
        "type": "Point",
        "coordinates": [
          20.0385224,
          50.0853912
        ]
      },
      "id": "node/213585855"
    },
    {
      "type": "Feature",
      "properties": {
        "@id": "node/213585864",
        "name": "Teatr Ludowy",
        "public_transport": "stop_position",
        "railway": "tram_stop",
        "tram": "yes",
        "url": "http://rozklady.mpk.krakow.pl/aktualne/p/p0119.htm"
      },
      "geometry": {
        "type": "Point",
        "coordinates": [
          20.0329435,
          50.082406
        ]
      },
      "id": "node/213585864"
    },
    {
      "type": "Feature",
      "properties": {
        "@id": "node/213585881",
        "name": "Rondo Kocmyrzowskie im. Ks. Gorzelanego",
        "public_transport": "stop_position",
        "railway": "tram_stop",
        "tram": "yes",
        "url": "http://rozklady.mpk.krakow.pl/aktualne/p/p0118.htm"
      },
      "geometry": {
        "type": "Point",
        "coordinates": [
          20.0264899,
          50.0790506
        ]
      },
      "id": "node/213585881"
    },
    {
      "type": "Feature",
      "properties": {
        "@id": "node/213585922",
        "name": "Stella-Sawickiego",
        "public_transport": "stop_position",
        "railway": "tram_stop",
        "tram": "yes"
      },
      "geometry": {
        "type": "Point",
        "coordinates": [
          20.0046383,
          50.0743017
        ]
      },
      "id": "node/213585922"
    },
    {
      "type": "Feature",
      "properties": {
        "@id": "node/213585931",
        "name": "AWF",
        "public_transport": "stop_position",
        "railway": "tram_stop",
        "tram": "yes",
        "url": "http://rozklady.mpk.krakow.pl/aktualne/p/p0100.htm"
      },
      "geometry": {
        "type": "Point",
        "coordinates": [
          19.9994566,
          50.0740353
        ]
      },
      "id": "node/213585931"
    },
    {
      "type": "Feature",
      "properties": {
        "@id": "node/213592007",
        "name": "Teatr Variété",
        "public_transport": "stop_position",
        "railway": "tram_stop",
        "tram": "yes"
      },
      "geometry": {
        "type": "Point",
        "coordinates": [
          19.9623745,
          50.0588268
        ]
      },
      "id": "node/213592007"
    },
    {
      "type": "Feature",
      "properties": {
        "@id": "node/213593804",
        "name": "Ofiar Dąbia",
        "public_transport": "stop_position",
        "railway": "tram_stop",
        "tram": "yes"
      },
      "geometry": {
        "type": "Point",
        "coordinates": [
          19.9762713,
          50.0596288
        ]
      },
      "id": "node/213593804"
    },
    {
      "type": "Feature",
      "properties": {
        "@id": "node/213593828",
        "name": "Francesco Nullo",
        "public_transport": "stop_position",
        "railway": "tram_stop",
        "tram": "yes"
      },
      "geometry": {
        "type": "Point",
        "coordinates": [
          19.9673821,
          50.0601733
        ]
      },
      "id": "node/213593828"
    },
    {
      "type": "Feature",
      "properties": {
        "@id": "node/213597071",
        "name": "Rondo 308. Dywizjonu",
        "public_transport": "stop_position",
        "railway": "tram_stop",
        "tram": "yes"
      },
      "geometry": {
        "type": "Point",
        "coordinates": [
          20.0053735,
          50.067398
        ]
      },
      "id": "node/213597071"
    },
    {
      "type": "Feature",
      "properties": {
        "@id": "node/213597117",
        "name": "Plaza",
        "public_transport": "stop_position",
        "railway": "tram_stop",
        "tram": "yes"
      },
      "geometry": {
        "type": "Point",
        "coordinates": [
          19.9839405,
          50.0630382
        ]
      },
      "id": "node/213597117"
    },
    {
      "type": "Feature",
      "properties": {
        "@id": "node/213602155",
        "name": "Os. Kolorowe",
        "public_transport": "stop_position",
        "railway": "tram_stop",
        "tram": "yes"
      },
      "geometry": {
        "type": "Point",
        "coordinates": [
          20.0285576,
          50.0723553
        ]
      },
      "id": "node/213602155"
    },
    {
      "type": "Feature",
      "properties": {
        "@id": "node/213605085",
        "name": "Struga",
        "public_transport": "stop_position",
        "railway": "tram_stop",
        "tram": "yes",
        "url": "http://rozklady.mpk.krakow.pl/aktualne/p/p0106.htm"
      },
      "geometry": {
        "type": "Point",
        "coordinates": [
          20.0462415,
          50.0745314
        ]
      },
      "id": "node/213605085"
    },
    {
      "type": "Feature",
      "properties": {
        "@id": "node/213643707",
        "name": "DH Wanda",
        "public_transport": "stop_position",
        "railway": "tram_stop",
        "tram": "yes",
        "url": "http://rozklady.mpk.krakow.pl/aktualne/p/p0135.htm"
      },
      "geometry": {
        "type": "Point",
        "coordinates": [
          20.0204914,
          50.0845504
        ]
      },
      "id": "node/213643707"
    },
    {
      "type": "Feature",
      "properties": {
        "@id": "node/213644494",
        "name": "Rondo Kocmyrzowskie im. Ks. Gorzelanego",
        "public_transport": "stop_position",
        "railway": "tram_stop",
        "tram": "yes",
        "url": "http://rozklady.mpk.krakow.pl/aktualne/p/p0118.htm"
      },
      "geometry": {
        "type": "Point",
        "coordinates": [
          20.0265409,
          50.0802606
        ]
      },
      "id": "node/213644494"
    },
    {
      "type": "Feature",
      "properties": {
        "@id": "node/213645106",
        "name": "Rondo Hipokratesa",
        "public_transport": "stop_position",
        "railway": "tram_stop",
        "tram": "yes",
        "url": "http://rozklady.mpk.krakow.pl/aktualne/p/p0162.htm"
      },
      "geometry": {
        "type": "Point",
        "coordinates": [
          20.0214207,
          50.0900802
        ]
      },
      "id": "node/213645106"
    },
    {
      "type": "Feature",
      "properties": {
        "@id": "node/213645256",
        "name": "Rondo Piastowskie",
        "public_transport": "stop_position",
        "railway": "tram_stop",
        "tram": "yes",
        "url": "http://rozklady.mpk.krakow.pl/aktualne/p/p0143.htm"
      },
      "geometry": {
        "type": "Point",
        "coordinates": [
          20.0112533,
          50.0943788
        ]
      },
      "id": "node/213645256"
    },
    {
      "type": "Feature",
      "properties": {
        "@id": "node/213646585",
        "name": "Piasta Kołodzieja",
        "public_transport": "stop_position",
        "railway": "tram_stop",
        "tram": "yes"
      },
      "geometry": {
        "type": "Point",
        "coordinates": [
          20.013012,
          50.0978326
        ]
      },
      "id": "node/213646585"
    },
    {
      "type": "Feature",
      "properties": {
        "@id": "node/213646624",
        "name": "Os.Piastów",
        "public_transport": "stop_position",
        "railway": "tram_stop",
        "tram": "yes"
      },
      "geometry": {
        "type": "Point",
        "coordinates": [
          20.0120407,
          50.1019904
        ]
      },
      "id": "node/213646624"
    },
    {
      "type": "Feature",
      "properties": {
        "@id": "node/213648409",
        "name": "Os.Złotego Wieku",
        "public_transport": "stop_position",
        "railway": "tram_stop",
        "tram": "yes",
        "url": "http://rozklady.mpk.krakow.pl/aktualne/p/p0141.htm"
      },
      "geometry": {
        "type": "Point",
        "coordinates": [
          20.0043203,
          50.0937476
        ]
      },
      "id": "node/213648409"
    },
    {
      "type": "Feature",
      "properties": {
        "@id": "node/213648418",
        "name": "Miśnieńska",
        "public_transport": "stop_position",
        "railway": "tram_stop",
        "tram": "yes",
        "url": "http://rozklady.mpk.krakow.pl/aktualne/p/p0140.htm"
      },
      "geometry": {
        "type": "Point",
        "coordinates": [
          19.9998288,
          50.0945291
        ]
      },
      "id": "node/213648418"
    },
    {
      "type": "Feature",
      "properties": {
        "@id": "node/213648443",
        "name": "Mistrzejowice",
        "network": "MPK Kraków",
        "public_transport": "stop_position",
        "railway": "tram_stop",
        "tram": "yes",
        "url": "http://rozklady.mpk.krakow.pl/aktualne/p/p0139.htm"
      },
      "geometry": {
        "type": "Point",
        "coordinates": [
          19.9963344,
          50.0950303
        ]
      },
      "id": "node/213648443"
    },
    {
      "type": "Feature",
      "properties": {
        "@id": "node/217778912",
        "bus": "yes",
        "name": "Hernals",
        "network": "VOR",
        "public_transport": "stop_position",
        "railway": "tram_stop",
        "tram": "yes",
        "wheelchair": "limited"
      },
      "geometry": {
        "type": "Point",
        "coordinates": [
          16.3149772,
          48.2236091
        ]
      },
      "id": "node/217778912"
    },
    {
      "type": "Feature",
      "properties": {
        "@id": "node/217826075",
        "bus": "yes",
        "highway": "bus_stop",
        "name": "Elterleinplatz",
        "network": "VOR",
        "public_transport": "stop_position",
        "railway": "tram_stop",
        "tram": "yes"
      },
      "geometry": {
        "type": "Point",
        "coordinates": [
          16.3328036,
          48.2180808
        ]
      },
      "id": "node/217826075"
    },
    {
      "type": "Feature",
      "properties": {
        "@id": "node/218186716",
        "bus": "yes",
        "highway": "bus_stop",
        "name": "Alser Straße",
        "network": "VOR",
        "public_transport": "stop_position",
        "railway": "tram_stop",
        "ref": "27",
        "toilets:wheelchair": "yes",
        "tram": "yes",
        "wheelchair": "yes"
      },
      "geometry": {
        "type": "Point",
        "coordinates": [
          16.3420335,
          48.217171
        ]
      },
      "id": "node/218186716"
    },
    {
      "type": "Feature",
      "properties": {
        "@id": "node/218263990",
        "bus": "yes",
        "highway": "bus_stop",
        "name": "Landesgerichtsstraße",
        "network": "VOR",
        "public_transport": "stop_position",
        "railway": "tram_stop",
        "tram": "yes",
        "wheelchair": "yes"
      },
      "geometry": {
        "type": "Point",
        "coordinates": [
          16.356991,
          48.2144783
        ]
      },
      "id": "node/218263990"
    },
    {
      "type": "Feature",
      "properties": {
        "@id": "node/218267419",
        "name": "Schottentor",
        "public_transport": "stop_position",
        "railway": "tram_stop",
        "ref": "1184",
        "tram": "yes",
        "wheelchair": "yes"
      },
      "geometry": {
        "type": "Point",
        "coordinates": [
          16.3619913,
          48.2138135
        ]
      },
      "id": "node/218267419"
    },
    {
      "type": "Feature",
      "properties": {
        "@id": "node/218953125",
        "name": "Kapucínska",
        "operator": "DPB",
        "public_transport": "stop_position",
        "railway": "tram_stop",
        "tram": "yes"
      },
      "geometry": {
        "type": "Point",
        "coordinates": [
          17.1049719,
          48.1449449
        ]
      },
      "id": "node/218953125"
    },
    {
      "type": "Feature",
      "properties": {
        "@id": "node/221457130",
        "name": "Špejchar",
        "public_transport": "stop_position",
        "railway": "tram_stop",
        "source": "Bing",
        "tram": "yes"
      },
      "geometry": {
        "type": "Point",
        "coordinates": [
          14.4096717,
          50.0975304
        ]
      },
      "id": "node/221457130"
    },
    {
      "type": "Feature",
      "properties": {
        "@id": "node/236806715",
        "name": "solarCity",
        "operator": "Linz AG",
        "public_transport": "stop_position",
        "railway": "tram_stop",
        "tram": "yes"
      },
      "geometry": {
        "type": "Point",
        "coordinates": [
          14.3630985,
          48.2570296
        ]
      },
      "id": "node/236806715"
    },
    {
      "type": "Feature",
      "properties": {
        "@id": "node/237170789",
        "name": "Hlubočepy",
        "name:de": "Kohlfelden",
        "public_transport": "stop_position",
        "railway": "tram_stop",
        "source": "Bing",
        "tram": "yes"
      },
      "geometry": {
        "type": "Point",
        "coordinates": [
          14.4042529,
          50.0416995
        ]
      },
      "id": "node/237170789"
    },
    {
      "type": "Feature",
      "properties": {
        "@id": "node/237172711",
        "name": "Geologická",
        "public_transport": "stop_position",
        "railway": "tram_stop",
        "source": "Bing",
        "tram": "yes"
      },
      "geometry": {
        "type": "Point",
        "coordinates": [
          14.3882293,
          50.0365345
        ]
      },
      "id": "node/237172711"
    },
    {
      "type": "Feature",
      "properties": {
        "@id": "node/237172719",
        "name": "K Barrandovu",
        "public_transport": "stop_position",
        "railway": "tram_stop",
        "source": "Bing",
        "tram": "yes"
      },
      "geometry": {
        "type": "Point",
        "coordinates": [
          14.3835679,
          50.0355296
        ]
      },
      "id": "node/237172719"
    },